{
  "source": "Smithsonian Global Volcanism Program (GVP) · VOTW Holocene",
  "recency_window_years": 100,
  "note": "volcanoes with a dated eruption within the last 100 years",
  "generated_at": "2026-06-20T23:12:59.024Z",
  "count": 17,
  "volcanoes": [
    {
      "name": "St. Andrew Strait",
      "type": "Complex",
      "last_eruption_year": 1957,
      "lon": 147.35,
      "lat": -2.38,
      "province_code": "PG16",
      "attribution": "contains",
      "level": "low"
    },
    {
      "name": "Titan Ridge",
      "type": "Fissure vent",
      "last_eruption_year": 1972,
      "lon": 147.78,
      "lat": -3.03,
      "province_code": "PG16",
      "attribution": "nearest",
      "level": "low"
    },
    {
      "name": "Kadovar",
      "type": "Stratovolcano",
      "last_eruption_year": 2023,
      "lon": 144.588,
      "lat": -3.608,
      "province_code": "PG14",
      "attribution": "contains",
      "level": "med"
    },
    {
      "name": "Bam",
      "type": "Stratovolcano",
      "last_eruption_year": 1960,
      "lon": 144.818,
      "lat": -3.613,
      "province_code": "PG14",
      "attribution": "contains",
      "level": "low"
    },
    {
      "name": "Manam",
      "type": "Stratovolcano",
      "last_eruption_year": 2026,
      "lon": 145.037,
      "lat": -4.08,
      "province_code": "PG13",
      "attribution": "contains",
      "level": "high"
    },
    {
      "name": "Karkar",
      "type": "Stratovolcano",
      "last_eruption_year": 1979,
      "lon": 145.976,
      "lat": -4.647,
      "province_code": "PG13",
      "attribution": "contains",
      "level": "low"
    },
    {
      "name": "Long Island",
      "type": "Complex",
      "last_eruption_year": 1993,
      "lon": 147.105,
      "lat": -5.3144,
      "province_code": "PG13",
      "attribution": "contains",
      "level": "low"
    },
    {
      "name": "Ritter Island",
      "type": "Stratovolcano",
      "last_eruption_year": 2007,
      "lon": 148.115,
      "lat": -5.519,
      "province_code": "PG12",
      "attribution": "contains",
      "level": "low"
    },
    {
      "name": "Langila",
      "type": "Complex",
      "last_eruption_year": 2026,
      "lon": 148.42,
      "lat": -5.525,
      "province_code": "PG19",
      "attribution": "contains",
      "level": "high"
    },
    {
      "name": "Krummel-Garbuna-Welcker",
      "type": "Stratovolcano(es)",
      "last_eruption_year": 2008,
      "lon": 150.027,
      "lat": -5.416,
      "province_code": "PG19",
      "attribution": "contains",
      "level": "low"
    },
    {
      "name": "Witori",
      "type": "Caldera",
      "last_eruption_year": 2012,
      "lon": 150.5161,
      "lat": -5.5745,
      "province_code": "PG19",
      "attribution": "contains",
      "level": "low"
    },
    {
      "name": "Ulawun",
      "type": "Stratovolcano",
      "last_eruption_year": 2025,
      "lon": 151.33,
      "lat": -5.05,
      "province_code": "PG19",
      "attribution": "contains",
      "level": "high"
    },
    {
      "name": "Rabaul",
      "type": "Caldera",
      "last_eruption_year": 2014,
      "lon": 152.1937,
      "lat": -4.2459,
      "province_code": "PG18",
      "attribution": "nearest",
      "level": "low"
    },
    {
      "name": "Lamington",
      "type": "Stratovolcano",
      "last_eruption_year": 1956,
      "lon": 148.15,
      "lat": -8.95,
      "province_code": "PG06",
      "attribution": "contains",
      "level": "low"
    },
    {
      "name": "Victory",
      "type": "Stratovolcano",
      "last_eruption_year": 1935,
      "lon": 149.072,
      "lat": -9.2003,
      "province_code": "PG06",
      "attribution": "contains",
      "level": "low"
    },
    {
      "name": "Sessagara Hills",
      "type": "Volcanic field",
      "last_eruption_year": 1944,
      "lon": 149.1278,
      "lat": -9.5542,
      "province_code": "PG06",
      "attribution": "contains",
      "level": "low"
    },
    {
      "name": "Bagana",
      "type": "Lava cone",
      "last_eruption_year": 2026,
      "lon": 155.196,
      "lat": -6.137,
      "province_code": "PG20",
      "attribution": "contains",
      "level": "high"
    }
  ]
}
